Geographic code,Geographic_name_english,Longitude,Latitude,Population_ 2016,Geographic code_ Census division,CSD type_ english
3520005,Toronto,-79.3831843,43.653226,2731571,3520,City
3506008,Ottawa,-75.6971931,45.4215296,934243,3506,City
3521005,Mississauga,-79.6441198,43.5890452,721599,3521,City
3521010,Brampton,-79.7624177,43.7315479,593638,3521,City
3525005,Hamilton,-79.8711024,43.2557206,536917,3525,City
3539036,London,-81.2452768,42.9849233,383822,3539,City
3519036,Markham,-79.3370188,43.8561002,328966,3519,City
3519028,Vaughan,-79.5085383,43.8563158,306233,3519,City
3530013,Kitchener,-80.4925337,43.4516395,233222,3530,City
3537039,Windsor,-83.0363633,42.3149367,217188,3537,City
3519038,Richmond_Hill,-79.4402808,43.8828401,195022,3519,City
3524001,Oakville,-79.6876659,43.467517,193832,3524,City
3524002,Burlington,-79.7990319,43.3255196,183314,3524,City
3553005,Greater_Sudbury,-80.993029,46.4917317,161531,3553,City
3518013,Oshawa,-78.8657912,43.8970929,159458,3518,City
3543042,Barrie,-79.6903316,44.3893556,141434,3543,City
3526053,St._Catharines,-79.2468626,43.1593745,133113,3526,City
3523008,Guelph,-80.2481666,43.5448048,131794,3523,City
3530010,Cambridge,-80.3144276,43.3616211,129920,3530,City
3518009,Whitby,-78.9429329,43.8975446,128377,3518,City
3510010,Kingston,-76.4859544,44.2311717,123798,3510,City
3518005,Ajax,-79.0203732,43.8508553,119677,3518,City
3524009,Milton,-79.8774042,43.5182991,110128,3524,City
3558004,Thunder_Bay,-89.2476823,48.3808951,107909,3558,City
3530016,Waterloo,-80.5204096,43.4642578,104986,3530,City
3536020,Chatham-Kent,-82.1910378,42.4048028,101647,3536,City
3529006,Brantford,-80.2644254,43.1393867,97496,3529,City
3518017,Clarington,-78.6000336,43.9345347,92013,3518,City
3518001,Pickering,-79.0867579,43.8384117,91771,3518,City
3526043,Niagara_Falls,-79.0849436,43.0895577,88071,3526,City
3519048,Newmarket,-79.461256,44.059187,84224,3519,City
3515014,Peterborough,-78.319747,44.309058,81032,3515,City
3516010,Kawartha_Lakes,-78.9006484,44.5337469,75423,3516,City
3557061,Sault_Ste._Marie,-84.3357526,46.5136494,73368,3557,City
3538030,Sarnia,-82.4065901,42.974536,71594,3538,City
3521024,Caledon,-79.8744836,43.8363372,66502,3521,City
3528052,Norfolk_County,-80.4136271,42.7967232,64044,3528,City
3524015,Halton_Hills,-80.017663,43.646987,61161,3524,City
3519046,Aurora,-79.450396,44.00648,55445,3519,City
3526032,Welland,-79.2482555,42.9921579,52293,3526,City
3548044,North_Bay,-79.4608204,46.3091152,51553,3548,City
3512005,Belleville,-77.3832315,44.1627589,50716,3512,City
3501012,Cornwall,-74.730345,45.0212762,46589,3501,City
3519044,Whitchurch-Stouffville,-79.2442842,43.9705861,45837,3519,City
3528018,Haldimand_County,-79.876197,42.9276849,45608,3528,City
3519070,Georgina,-79.436232,44.296296,45418,3519,City
3512015,Quinte_West,-77.5861029,44.1790105,43577,3512,City
3556027,Timmins,-81.3304953,48.4758208,41788,3556,City
3532042,Woodstock,-80.7471651,43.1314966,40902,3532,City
3534021,St._Thomas,-81.1826527,42.7777214,38909,3534,City
3529005,Brant,-80.171591,43.152667,36707,3529,City
3537064,Lakeshore,-82.683333,42.25,36611,3537,City
3543017,Innisfil,-79.6114973,44.3008813,36566,3543,City
3543014,Bradford_West_Gwillimbury,-79.5629529,44.114899,35325,3543,City
3543007,New_Tecumseth,-79.8685861,44.1529303,34242,3543,City
3531011,Stratford,-80.9822286,43.3700007,31465,3531,City
3543052,Orillia,-79.4196783,44.6082465,31166,3543,City
3526003,Fort_Erie,-78.9721745,42.9017764,30710,3526,City
3537034,LaSalle,-83.1024769,42.2355411,30180,3537,City
3522014,Orangeville,-80.0943113,43.9199788,28900,3522,City
3523025,Centre_Wellington,-80.3213106,43.7236325,28191,3523,City
3537003,Leamington,-82.5998874,42.0531634,27595,3537,City
3526065,Grimsby,-79.5624195,43.1942126,27314,3526,City
3530035,Woolwich,-80.4771472,43.5656002,25006,3530,City
3513020,Prince_Edward_County,-77.2504937,44.0003383,24735,3513,City
3502036,Clarence-Rockland,-75.280351,45.5508523,24512,3502,City
3519049,King,-79.6052884,43.9631844,24512,3519,City
3519054,East_Gwillimbury,-79.4417811,44.1010645,23991,3519,City
3526057,Lincoln,-79.4849,43.139227,23787,3526,City
3537048,Tecumseh,-82.8857592,42.3117966,23229,3537,City
3537028,Amherstburg,-83.1086977,42.1013779,21936,3537,City
3543031,Collingwood,-80.2169047,44.5007687,21793,3543,City
3518020,Scugog,-78.9740725,44.1294198,21617,3518,City
3537013,Kingsville,-82.7396377,42.0378703,21552,3537,City
3507015,Brockville,-75.6842858,44.5895244,21346,3507,City
3542059,Owen_Sound,-80.9405602,44.5690305,21341,3542,City
3518029,Uxbridge,-79.1204998,44.1094028,21176,3518,City
3543021,Essa,-79.7848422,44.280472,21083,3543,City
3543023,Oro-Medonte,-79.5920352,44.5620514,21036,3543,City
3539015,Strathroy-Caradoc,-81.6232333,42.95542,20867,3539,City
3543064,Wasaga_Beach,-80.0160668,44.5207419,20675,3543,City
3530020,Wilmot,-80.6498888,43.4000577,20545,3530,City
3537016,Essex,-82.818899,42.1726977,20427,3537,City
3544042,Huntsville,-79.2167539,45.3269323,19816,3544,City
3514021,Cobourg,-78.1677363,43.9593373,19440,3514,City
3543009,Springwater,-79.8744836,44.5130038,19059,3543,City
3526037,Thorold,-79.1989299,43.1236091,18801,3526,City
3510020,South_Frontenac,-76.5356683,44.538565,18646,3510,City
3526011,Port_Colborne,-79.2508558,42.8865204,18306,3526,City
3526047,Niagara-on-the-Lake,-79.0772616,43.2549988,17511,3526,City
3539033,Middlesex_Centre,-81.4510568,43.0500157,17262,3539,City
3547076,Petawawa,-77.2828772,45.8982631,17187,3547,City
3526028,Pelham,-79.328764,43.037222,17110,3526,City
3515015,Selwyn,-78.354093,44.4227884,17060,3515,City
3511005,Loyalist,-76.7182925,44.2770379,16971,3511,City
3543074,Midland,-79.8921923,44.749516,16864,3543,City
3514020,Port_Hope,-78.2934468,43.9491784,16753,3514,City
3502048,Russell,-75.357609,45.2592652,16520,3502,City
3507065,North_Grenville,-75.6281825,44.9552349,16451,3507,City
3544018,Bracebridge,-79.3078787,45.0389565,16010,3544,City
3511015,Greater_Napanee,-76.964306,44.2148382,15892,3511,City
3532004,Tillsonburg,-80.7333175,42.8658879,15872,3532,City
3560010,Kenora,-94.4893924,49.7670416,15096,3560,City
3526021,West_Lincoln,-79.6052884,43.0490189,14500,3526,City
3548055,West_Nipissing,-79.9247299,46.3679478,14364,3548,City
3543005,Clearview,-80.0950309,44.3853053,14151,3543,City
3538003,St._Clair,-82.345189,42.8025726,14086,3538,City
3547064,Pembroke,-77.1108826,45.8266513,13882,3547,City
3541045,Saugeen_Shores,-81.4035059,44.422498,13715,3541,City
3543015,Severn,-79.511947,44.7791958,13477,3543,City
3539027,Thames_Centre,-81.0975397,43.0408402,13191,3539,City
3509030,Mississippi_Mills,-76.1938403,45.2313875,13163,3509,City
3501005,South_Glengarry,-74.5731489,45.1966189,13150,3501,City
3531040,North_Perth,-80.9428911,43.7748562,13130,3531,City
3501011,South_Stormont,-74.9262624,45.0725756,13110,3501,City
3514045,Trent_Hills,-77.7962585,44.3082485,12900,3514,City
3523009,Guelph_Eramosa,-80.144189,43.61887,12854,3523,City
3502025,The_Nation,-74.9805296,45.4056351,12808,3502,City
3532018,Ingersoll,-80.884049,43.0381628,12757,3532,City
3534020,Central_Elgin,-81.2155934,42.6641312,12607,3534,City
3542004,West_Grey,-80.8543847,44.2214069,12518,3542,City
3544002,Gravenhurst,-79.3741834,44.919643,12311,3544,City
3531030,Perth_East,-80.944333,43.5298684,12261,3531,City
3523050,Wellington_North,-80.5882803,43.8977358,11914,3523,City
3514004,Brighton,-77.7368828,44.0422599,11844,3514,City
3543068,Tiny,-80.0025028,44.699827,11787,3543,City
3518039,Brock,-79.09541,44.337569,11642,3518,City
3523017,Erin,-80.0687097,43.7758018,11439,3523,City
3541024,Kincardine,-81.6365715,44.1752954,11389,3541,City
3501030,North_Dundas,-75.3630786,45.0732581,11278,3501,City
3530027,Wellesley,-80.7657804,43.5322057,11260,3530,City
3532002,Norwich,-80.5974658,42.9876575,11001,3532,City
3542047,Meaford,-80.5936871,44.6059438,10991,3542,City
3543003,Adjala-Tosorontio,-79.9416549,44.1254172,10975,3543,City
3514019,Hamilton,-79.8711024,43.2557206,10942,3514,City
3501020,South_Dundas,-75.2088341,44.9767846,10833,3501,City
3557041,Elliot_Lake,-82.650941,46.386179,10741,3557,City
3509028,Carleton_Place,-76.146546,45.140603,10644,3509,City
3538040,Lambton_Shores,-81.8671012,43.2201531,10631,3538,City
3523033,Mapleton,-80.6770787,43.7533739,10527,3523,City
3542053,Georgian_Bluffs,-81.0197989,44.6839975,10479,3542,City
3507040,Rideau_Lakes,-76.279604,44.658154,10326,3507,City
3502008,Hawkesbury,-74.604189,45.6071264,10263,3502,City
3530004,North_Dumfries,-80.3881333,43.3289207,10215,3530,City
3501050,North_Glengarry,-74.6888853,45.3661144,10109,3501,City
3540005,South_Huron,-81.5,43.316667,10096,3540,City
3543071,Tay,-79.7935893,44.7112165,10033,3543,City
3554020,Temiskaming_Shores,-79.6978808,47.5036644,9920,3554,Rural
3507014,Elizabethtown-Kitley,-75.8823643,44.7032782,9854,3507,Rural
3542015,Grey_Highlands,-80.5882803,44.3499393,9804,3542,Rural
3502023,Alfred_and_Plantagenet,-74.9031999,45.549331,9680,3502,Rural
3543019,Ramara,-79.2039586,44.6004524,9488,3543,Rural
3507021,Leeds_and_the_Thousand_Islands,-76.0680705,44.481587,9465,3507,Rural
3541032,Brockton,-81.2078164,44.1739758,9461,3541,Rural
3547075,Laurentian_Valley,-77.2611362,45.7643479,9387,3547,Rural
3534010,Malahide,-80.9428911,42.5444647,9292,3534,Rural
3540040,Huron_East,-81.283333,43.633333,9138,3540,Rural
3543072,Penetanguishene,-79.933681,44.7687678,8962,3543,Rural
3531025,West_Perth,-81.2078164,43.4908432,8865,3531,Rural
3515013,Cavan_Monaghan,-78.4524591,44.2086668,8829,3515,Rural
3547002,Arnprior,-76.3518469,45.4347445,8795,3547,Rural
3509004,Smiths_Falls,-76.0216189,44.903748,8780,3509,Rural
3502010,Champlain,-74.7028825,45.5800476,8706,3502,Rural
3523043,Minto,-80.8543847,43.9194573,8671,3523,Rural
3522012,Mono,-80.0534923,44.0033629,8609,3522,Rural
3541055,South_Bruce_Peninsula,-81.1917944,44.7316246,8416,3541,Rural
3556066,Kapuskasing,-82.400129,49.380268,8292,3556,Rural
3547048,Renfrew,-76.6877186,45.4749199,8223,3547,Rural
3532027,Zorra,-80.9428911,43.1634054,8138,3532,Rural
3522021,Shelburne,-80.2011728,44.079119,8126,3522,Rural
3554068,Kirkland_Lake,-80.031517,48.1497173,7981,3554,Rural
3538035,Plympton-Wyoming,-82.1180045,42.9797265,7795,3538,Rural
3509010,Drummond_North_Elmsley,-76.2017953,44.9702095,7773,3509,Rural
3560027,Dryden,-92.8369592,49.7800938,7749,3560,Rural
3559012,Fort_Frances,-93.3955282,48.6099494,7739,3559,Rural
3511030,Stone_Mills,-76.9746104,44.4401754,7702,3511,Rural
3542029,Hanover,-81.0254145,44.1526004,7688,3542,Rural
3532012,South-West_Oxford,-80.8322428,42.9812307,7664,3532,Rural
3509024,Beckwith,-76.0685965,45.0868518,7644,3509,Rural
3540028,Goderich,-81.7138942,43.7428345,7628,3540,Rural
3540025,Central_Huron,-81.4718387,43.6635614,7576,3540,Rural
3534011,Aylmer,-80.9828842,42.7729381,7492,3534,Rural
3532045,Blandford-Blenheim,-80.5882803,43.2114764,7399,3532,Rural
3534005,Bayham,-80.7657804,42.685688,7396,3534,Rural
3542005,Southgate,-80.5882803,44.1243696,7354,3542,Rural
3507006,Augusta,-75.6425085,44.7295507,7353,3507,Rural
3523001,Puslinch,-80.097349,43.432922,7336,3523,Rural
3531016,St._Marys,-81.140653,43.2595868,7265,3531,Rural
3547003,McNab_Braeside,-76.5008625,45.4452338,7178,3547,Rural
3540010,Bluewater,-81.6,43.483333,7136,3540,Rural
3532038,East_Zorra-Tavistock,-80.7879407,43.2470056,7129,3532,Rural
3507004,Edwardsburgh_Cardinal,-75.5073207,44.8447444,7093,3507,Rural
3541015,Huron-Kinloss,-81.5596427,44.0496367,7069,3541,Rural
3542045,The_Blue_Mountains,-80.4080947,44.5404905,7025,3542,Rural
3547056,Whitewater_Region,-76.8772458,45.7202925,7009,3547,Rural
3501042,North_Stormont,-75.0953665,45.1907885,6873,3501,Rural
3514024,Alnwick_Haldimand,-77.973865,43.9523161,6869,3514,Rural
3541043,Arran-Elderslie,-81.2078164,44.3995556,6803,3541,Rural
3560090,Kenora_Unorganized,-89.14786,54.7821676,6737,3560,Rural
3515023,Douro-Dummer,-78.1113503,44.4908805,6709,3515,Rural
3515005,Otonabee-South_Monaghan,-78.1564432,44.2715843,6670,3515,Rural
3542037,Chatsworth,-80.8543847,44.3716712,6630,3542,Rural
3544053,Muskoka_Lakes,-79.5595975,45.160298,6588,3544,Rural
3549032,Parry_Sound,-80.034783,45.3473925,6408,3549,Rural
3526014,Wainfleet,-79.3757559,42.923366,6372,3526,Rural
3514014,Cramahe,-77.8824596,44.0927697,6355,3514,Rural
3539041,North_Middlesex,-81.5337693,43.1470282,6352,3539,Rural
3546024,Dysart_et_al,-78.4263981,45.239608,6280,3546,Rural
3546015,Minden_Hills,-78.725375,44.9271767,6088,3546,Rural
3512030,Tweed,-77.310249,44.474728,6044,3512,Rural
3509021,Perth,-76.2485592,44.8988097,5930,3509,Rural
3558011,Oliver_Paipoonge,-89.5347384,48.43782,5922,3558,Rural
3558090,Thunder_Bay_Unorganized,-88.165171,50.333746,5872,3558,Rural
3538019,Petrolia,-82.1444338,42.8818379,5742,3538,Rural
3557095,Algoma_Unorganized_North_Part,-84.2147323,47.7762571,5739,3557,Rural
3539005,Southwest_Middlesex,-81.7130522,42.7390412,5723,3539,Rural
3509015,Tay_Valley,-76.3637781,44.8951585,5665,3509,Rural
3541004,South_Bruce,-81.2078164,44.0229962,5639,3541,Rural
3540063,Ashfield-Colborne-Wawanosh,-81.647344,43.9046462,5422,3540,Rural
3515044,Trent_Lakes,-78.4180759,44.6725372,5397,3515,Rural
3509039,Lanark_Highlands,-76.4837269,45.0614489,5338,3509,Rural
3556042,Cochrane,-81.0299298,49.0650259,5321,3556,Rural
3560034,Sioux_Lookout,-91.922038,50.0978321,5272,3560,Rural
3507024,Gananoque,-76.161864,44.330618,5159,3507,Rural
3556076,Hearst,-83.6669552,49.6880184,5070,3556,Rural
3552026,Espanola,-81.771057,46.2657181,4996,3552,Rural
3534042,West_Elgin,-81.647344,42.5982006,4995,3534,Rural
3540055,North_Huron,-81.4059186,43.8297581,4932,3540,Rural
3512020,Stirling-Rawdon,-77.5921337,44.360297,4882,3512,Rural
3512026,Centre_Hastings,-77.4536103,44.4009943,4774,3512,Rural
3548034,East_Ferris,-79.2822884,46.2250229,4750,3548,Rural
3539060,Lucan_Biddulph,-81.3619402,43.215177,4700,3539,Rural
3558075,Greenstone,-87.283333,49.766667,4636,3558,Rural
3556031,Iroquois_Falls,-80.6731665,48.7679814,4537,3556,Rural
3515030,Havelock-Belmont-Methuen,-77.8974669,44.5429982,4530,3515,Rural
3534024,Southwold,-81.295925,42.7273913,4421,3534,Rural
3510035,Central_Frontenac,-76.8419637,44.7253406,4373,3510,Rural
3549003,Seguin,-79.7811293,45.3320359,4304,3549,Rural
3512001,Tyendinaga,-77.2244292,44.3192398,4297,3512,Rural
3507008,Prescott,-75.518972,44.709294,4222,3507,Rural
3547030,Madawaska_Valley,-77.6770152,45.5034326,4123,3547,Rural
3515003,Asphodel-Norwood,-77.9967043,44.3480847,4109,3515,Rural
3547096,Deep_River,-77.4933397,46.0976628,4109,3547,Rural
3560042,Red_Lake,-93.828916,51.0145968,4107,3560,Rural
3522008,Amaranth,-80.2321313,43.9433318,4079,3522,Rural
3512076,Hastings_Highlands,-77.8973726,45.2221641,4078,3512,Rural
3541069,Northern_Bruce_Peninsula,-81.2717096,45.1915212,3999,3541,Rural
3512046,Marmora_and_Lake,-77.682106,44.482947,3953,3512,Rural
3512061,Bancroft,-77.8548814,45.0558574,3881,3512,Rural
3540046,Howick,-81.0533854,43.8784603,3873,3540,Rural
3534030,Dutton_Dunwich,-81.4718387,42.6630094,3866,3534,Rural
3549066,Callander,-79.366393,46.222198,3863,3549,Rural
3531013,Perth_South,-81.0975397,43.3100001,3810,3531,Rural
3509001,Montague,-75.9466715,44.9765637,3761,3509,Rural
3538043,Warwick,-81.909826,43.0048856,3692,3538,Rural
3547035,Bonnechere_Valley,-77.2026877,45.4506004,3674,3547,Rural
3502044,Casselman,-75.0893653,45.3107048,3548,3502,Rural
3540050,Morris-Turnberry,-81.295925,43.8024122,3496,3540,Rural
3522016,Mulmur,-80.0387976,44.1698421,3478,3522,Rural
3557038,Blind_River,-82.9539729,46.1847168,3472,3557,Rural
3549060,Powassan,-79.368324,46.0807239,3455,3549,Rural
3546005,Highlands_East,-78.206467,44.9517578,3343,3546,Rural
3502001,East_Hawkesbury,-74.4780275,45.5104445,3296,3502,Rural
3558059,Marathon,-86.3821956,48.716744,3273,3558,Rural
3554094,Timiskaming_Unorganized_West_Part,-80.8118994,47.5535643,3257,3554,Rural
3552023,Sables-Spanish_Rivers,-82.0149476,46.2760114,3214,3552,Rural
3544027,Lake_of_Bays,-78.9801596,45.1811114,3167,3544,Rural
3507052,Merrickville-Wolford,-75.8105866,44.8455906,3067,3507,Rural
3507042,Athens,-75.9511384,44.6265326,3013,3507,Rural
3522019,Melancthon,-80.2640746,44.1073092,3008,3522,Rural
3539047,Adelaide-Metcalfe,-81.734942,42.915029,2990,3539,Rural
3547090,Laurentian_Hills,-77.507622,45.98577,2961,3547,Rural
3522010,Grand_Valley,-80.3881333,43.9377374,2956,3522,Rural
3547043,Admaston_Bromley,-76.8219123,45.4066937,2935,3547,Rural
3547070,North_Algona_Wilberforce,-77.1996016,45.6227626,2915,3547,Rural
3557076,Wawa,-84.7710588,47.992417,2905,3557,Rural
3547046,Horton,-76.6904129,45.5253471,2887,3547,Rural
3556092,Cochrane_Unorganized_North_Part,-83.0158522,50.4700387,2865,3556,Rural
3558028,Shuniah,-88.6650479,48.671288,2798,3558,Rural
3538016,Enniskillen,-82.1060683,42.8444792,2796,3538,Rural
3552093,Sudbury_Unorganized_North_Part,-81.8170577,47.4718117,2755,3552,Rural
3559001,Atikokan,-91.6181716,48.7597531,2753,3559,Rural
3551017,Northeastern_Manitoulin_and_the_Islands,-81.3835994,45.7313093,2712,3551,Rural
3549031,McDougall,-80.0301093,45.4301566,2702,3549,Rural
3552001,French_River,-80.5373359,46.0361583,2662,3552,Rural
3552013,Markstay-Warren,-80.41645,46.454695,2656,3552,Rural
3507017,Front_of_Yonge,-75.8773667,44.5141607,2607,3507,Rural
3522001,East_Garafraxa,-80.254435,43.8506548,2579,3522,Rural
3512004,Tyendinaga_Mohawk_Territory,-77.1600201,44.1906387,2524,3512,Rural
3547008,Greater_Madawaska,-76.889597,45.2617817,2518,3547,Rural
3551043,Wikwemikong_Unceded,-81.7214899,45.8036471,2500,3551,Rural
3544065,Georgian_Bay,-81.1131806,45.4061848,2499,3544,Rural
3515037,North_Kawartha,-78.0821423,44.7879049,2479,3515,Rural
3549014,Perry,-79.3143561,45.4981776,2454,3549,Rural
3556014,Black_River-Matheson,-80.4641172,48.532885,2438,3556,Rural
3547033,Killaloe_Hagarty_and_Richards,-77.5177385,45.6392314,2420,3547,Rural
3538015,Brooke-Alvinston,-81.8965799,42.8387951,2411,3538,Rural
3546018,Algonquin_Highlands,-78.7081241,45.3821791,2351,3546,Rural
3511035,Addington_Highlands,-77.3373735,44.9331704,2323,3511,Rural
3549096,Parry_Sound_Unorganized_Centre_Part,-80.3032929,45.873808,2143,3549,Rural
3551006,Central_Manitoulin,-82.2024639,45.5999242,2084,3551,Rural
3512036,Madoc,-77.4726363,44.5052295,2078,3512,Rural
3558001,Neebing,-89.462449,48.188564,2055,3558,Rural
3538031,Point_Edward,-82.4048423,42.9954129,2037,3538,Rural
3560071,Sandy_Lake_88,-93.3294051,53.0634269,2017,3560,Rural
3548021,Mattawa,-78.702193,46.31748,1993,3548,Rural
3548027,Bonfield,-79.1469527,46.2309767,1975,3548,Rural
3538007,Dawn-Euphemia,-82.0842901,42.7071129,1967,3538,Rural
3552092,Chapleau,-83.4026108,47.8423282,1964,3552,Rural
3558066,Manitouwadge,-85.8288146,49.1258627,1937,3558,Rural
3510045,North_Frontenac,-76.9293143,44.962281,1898,3510,Rural
3548094,Nipissing_Unorganized_North_Part,-79.4717076,46.5728855,1784,3548,Rural
3512002,Deseronto,-77.0487329,44.1953988,1774,3512,Rural
3510005,Frontenac_Islands,-76.5025742,44.1604277,1760,3510,Rural
3549071,Nipissing,-79.515361,46.097228,1707,3549,Rural
3557035,Huron_Shores,-83.2115889,46.0843793,1664,3557,Rural
3558044,Nipigon,-88.268316,49.0157351,1642,3558,Rural
3558054,Terrace_Bay,-87.0966258,48.783999,1611,3558,Rural
3557051,Macdonald_Meredith_and_Aberdeen_Additional,-83.9546007,46.4917019,1609,3557,Rural
3548073,Nipissing_10,-79.7902944,46.3396694,1593,3548,Rural
3538004,Walpole_Island_46,-82.5077593,42.5701997,1589,3538,Rural
3556094,Factory_Island_1,-80.5946174,51.2659888,1560,3556,Rural
3547020,Brudenell_Lyndoch_and_Raglan,-77.363107,45.3158888,1503,3547,Rural
3560051,Attawapiskat_91A,-82.4232972,52.9268757,1501,3560,Rural
3501007,Akwesasne_(Part)_59,-74.7227709,45.0022135,1487,3501,Rural
3556106,Moosonee,-80.640049,51.273089,1481,3556,Rural
3554052,Englehart,-79.8738283,47.8242362,1479,3554,Rural
3549046,Strong,-79.4694871,45.738895,1439,3549,Rural
3549019,Armour,-79.3656183,45.6175021,1414,3549,Rural
3560050,Fort_Albany_(Part)_67,-81.7276723,52.3063606,1404,3560,Rural
3512058,Faraday,-77.8972721,44.994633,1401,3512,Rural
3549043,Magnetawan,-79.643979,45.665241,1390,3549,Rural
3559090,Rainy_River_Unorganized,-91.1989814,48.5525242,1385,3559,Rural
3559019,Emo,-93.8350254,48.6322193,1333,3559,Rural
3556048,Smooth_Rock_Falls,-81.6208874,49.2753423,1330,3556,Rural
3548031,Chisholm,-79.1829048,46.0995957,1291,3548,Rural
3557028,Thessalon,-83.556368,46.255953,1286,3557,Rural
3552004,St.-Charles,-80.4167049,46.362467,1269,3552,Rural
3557008,St._Joseph,-84.0028941,46.263042,1240,3557,Rural
3556056,Moonbeam,-82.1541332,49.3431571,1231,3556,Rural
3560001,Ignace,-91.658744,49.415946,1202,3560,Rural
3554036,Armstrong,-89.058273,50.296741,1166,3554,Rural
3557071,Sagamok,-82.1138009,46.1286064,1140,3557,Rural
3554008,Cobalt,-79.6860815,47.3953302,1128,3554,Rural
3549036,Carling,-80.50375,45.2811088,1125,3549,Rural
3557074,Garden_River_14,-84.0367955,46.5829997,1125,3557,Rural
3549056,South_River,-79.3795728,45.8410378,1114,3549,Rural
3549028,McKellar,-79.8497018,45.4712069,1111,3549,Rural
3548001,South_Algonquin,-78.1177022,45.5124252,1096,3548,Rural
3515019,Curve_Lake_First_Nation_35,-78.3585918,44.4839213,1059,3515,Rural
3558051,Schreiber,-87.2677575,48.8099605,1059,3558,Rural
3557011,Laird,-84.0675212,46.3818801,1047,3557,Rural
3541057,Saugeen_29,-81.3069315,44.5476201,1041,3541,Rural
3560075,Kitchenuhmaykoosib_Aaki_84_(Big_Trout_Lake),-89.7447304,53.7800436,1024,3560,Rural
3548013,Papineau-Cameron,-78.474666,46.2038102,1016,3548,Rural
3560053,Fort_Hope_64,-87.8334418,51.6213428,1014,3560,Rural
3551011,Assiginack,-81.813685,45.737315,1013,3551,Rural
3538056,Kettle_Point_44,-82.0025626,43.1897876,1011,3538,Rural
3557066,Prince,-84.5238307,46.5590135,1010,3557,Rural
3560032,Ear_Falls,-93.3565202,50.7558385,995,3560,Rural
3549022,Burk's_Falls,-79.408748,45.619883,981,3549,Rural
3558003,Fort_William_52,-89.2715224,48.3067617,981,3558,Rural
3557096,Hornepayne,-84.7714443,49.2122192,980,3557,Rural
3560056,Lac_Seul_28,-92.1909023,50.2347554,974,3560,Rural
3560021,Machin,-93.1467052,49.7711643,971,3560,Rural
3559011,Alberton,-93.5427217,48.6045819,969,3559,Rural
3549048,Sundridge,-79.3963867,45.7690306,961,3549,Rural
3559016,La_Vallee,-93.6593047,48.6210077,938,3559,Rural
3549039,Whitestone,-79.983333,45.683333,916,3549,Rural
3558041,Red_Rock,-88.259433,48.945248,895,3558,Rural
3560059,Weagamow_Lake_87,-91.263769,52.9639999,886,3560,Rural
3551045,M'Chigeeng_22_(West_Bay_22),-82.1839579,45.8129281,884,3551,Rural
3549018,Kearney,-79.2235611,45.556352,882,3549,Rural
3549054,Machar,-79.4691796,45.8570089,882,3549,Rural
3543050,Mnjikaning_First_Nation_32,-79.3069058,44.6885723,878,3543,Rural
3551026,Gore_Bay,-82.4597783,45.9114017,867,3551,Rural
3560070,Deer_Lake,-78.077904,45.056331,867,3560,Rural
3512065,Carlow_Mayo,-77.6163789,45.1346915,864,3512,Rural
3560096,Kasabonika_Lake,-88.607778,53.530833,849,3560,Rural
3560061,Wabaseemoong,-94.9307553,50.1715182,827,3560,Rural
3549012,McMurrich_Monteith,-79.4508438,45.4538231,824,3549,Rural
3558019,Conmee,-89.6830891,48.4583031,819,3558,Rural
3559063,Couchiching_16A,-93.4488074,48.6776856,810,3559,Rural
3559042,Rainy_River,-94.5695247,48.7216623,807,3559,Rural
3548069,Temagami,-79.7895671,47.0633734,802,3548,Rural
3560079,Webequie,-87.2982885,52.9615432,778,3560,Rural
3556070,Val_Rita-Harty,-82.5980122,49.4953634,762,3556,Rural
3556093,Fort_Albany_(Part)_67,-81.7276723,52.3063606,759,3556,Rural
3557016,Johnson,-83.9227185,46.3444108,751,3557,Rural
3554062,Larder_Lake,-79.7152076,48.0977297,730,3554,Rural
3557039,Spanish,-82.3422779,46.1947959,712,3557,Rural
3554044,Charlton_and_Dack,-79.9209827,47.8124071,686,3554,Rural
3512054,Wollaston,-77.8354298,44.8557856,670,3512,Rural
3558016,O'Connor,-89.700394,48.36924,663,3558,Rural
3557019,Plummer_Additional,-83.7300933,46.3831381,660,3557,Rural
3538018,Oil_Springs,-82.119481,42.7837894,648,3538,Rural
3549024,Ryerson,-79.5187368,45.5935706,648,3549,Rural
3556077,Mattice-Val_Ct,-83.2484722,49.6086278,648,3556,Rural
3557091,White_River,-85.274809,48.593953,645,3557,Rural
3538025,Sarnia_45,-82.4048423,42.9180165,639,3538,Rural
3559024,Chapple,-93.9563027,48.7719921,638,3559,Rural
3560058,English_River_21,-94.0398854,50.1594907,638,3560,Rural
3552028,Baldwin,-81.7468691,46.3147789,620,3552,Rural
3541060,Neyaashiinigmiing_27,-81.0330361,44.9166375,615,3541,Rural
3543069,Christian_Island_30,-80.203564,44.8316783,614,3543,Rural
3557079,Dubreuilville,-84.5508246,48.348505,613,3557,Rural
3554058,McGarry,-79.5697662,48.1448398,609,3554,Rural
3529021,New_Credit_(Part)_40A,-80.0814292,43.0001853,605,3529,Rural
3551021,Billings,-82.216667,45.85,603,3551,Rural
3554001,Coleman,-79.7539543,47.3643361,595,3554,Rural
3560085,Wunnumin_1,-89.2746576,52.8558499,593,3560,Rural
3507033,Westport,-76.3996659,44.6776761,590,3507,Rural
3556095,Constance_Lake_92,-84.1190766,49.8184825,590,3556,Rural
3512048,Tudor_and_Cashel,-77.524307,44.9540098,586,3512,Rural
3557021,Bruce_Mines,-83.7934739,46.3002729,582,3557,Rural
3560004,Whitefish_Bay_32A,-93.839156,49.4084373,575,3560,Rural
3560008,Sioux_Narrows-Nestor_Falls,-94.0958688,49.4108298,567,3560,Rural
3560054,Cat_Lake_63C,-91.8125433,51.7380281,565,3560,Rural
3554026,Harley,-79.7050571,47.6375765,551,3554,Rural
3554014,Harris,-79.5860367,47.5472653,545,3554,Rural
3556052,Fauquier-Strickland,-81.9418648,49.2878671,536,3556,Rural
3557014,Tarbutt_and_Tarbutt_Additional,-84.0180999,46.3504126,534,3557,Rural
3549005,The_Archipelago,-80.3459393,45.6097518,531,3549,Rural
3548022,Calvin,-78.9208221,46.2677359,516,3548,Rural
3560076,Sachigo_Lake_1,-92.1852191,53.8853799,514,3560,Rural
3560098,Kingfisher_Lake_1,-89.844905,53.0296731,511,3560,Rural
3554021,Hudson,-79.844843,47.5309585,503,3554,Rural
3557040,The_North_Shore,-82.698668,46.2255512,497,3557,Rural
3514027,Alderville_First_Nation,-78.0851607,44.1728865,495,3514,Rural
3551027,Gordon_Barrie_Island,-82.4175246,45.9003476,490,3551,Rural
3559031,Morley,-94.2077426,48.7429726,481,3559,Rural
3558012,Gillies,-89.6853032,48.2588313,474,3558,Rural
3560067,Poplar_Hill,-94.3018791,52.0998786,473,3560,Rural
3559040,Dawson,-94.6190602,48.8279381,468,3559,Rural
3539002,Newbury,-81.797839,42.6844699,466,3539,Rural
3551040,Whitefish_River_(Part)_4,-85.323214,51.253775,456,3551,Rural
3554049,Evanturel,-79.7966171,47.8051383,449,3554,Rural
3558062,Pic_River_50,-86.2740076,48.6263993,443,3558,Rural
3547037,Pikwakanagan_(Golden_Lake_39),-77.244403,45.5654724,440,3547,Rural
3560088,Wapekeka_2,-89.5836505,53.8393081,440,3560,Rural
3551001,Tehkummah,-82.0147889,45.65591,436,3551,Rural
3560055,Osnaburgh_63B,-90.1746252,51.2525796,435,3560,Rural
3560066,Kenora_38B,-94.4242757,49.7345951,421,3560,Rural
3560104,Kee-Way-Win,-92.8176015,52.9481152,421,3560,Rural
3554042,James,-80.3414074,47.6933049,420,3554,Rural
3557073,Mississagi_River_8,-83.0087708,46.312354,411,3557,Rural
3536029,Moravian_47,-81.8770671,42.5660933,395,3536,Rural
3560068,Shoal_Lake_(Part)_39A,-95.108228,49.617951,391,3560,Rural
3560049,Pickle_Lake,-90.193782,51.467825,388,3560,Rural
3552036,Killarney,-81.5114972,45.9719137,386,3552,Rural
3552051,Whitefish_Lake_6,-81.2285314,46.3146494,386,3552,Rural
3558068,Long_Lake_58,-86.5626243,49.7923513,385,3558,Rural
3560086,Summer_Beaver,-88.4618085,52.7986795,382,3560,Rural
3551041,Sucker_Creek_23,-81.9952215,45.9647536,372,3551,Rural
3557072,Serpent_River_7,-82.5592887,46.1876938,371,3557,Rural
3560063,Sabaskong_Bay_35D,-93.9167314,49.179867,371,3560,Rural
3554029,Casey,-79.5576227,47.6241454,368,3554,Rural
3558076,Aroland_83,-86.9662133,50.2287333,366,3558,Rural
3515008,Hiawatha_First_Nation,-78.2162833,44.1866362,362,3515,Rural
3560078,Fort_Severn_89,-87.6330027,55.99067,361,3560,Rural
3554024,Kerns,-79.8171293,47.6079009,358,3554,Rural
3560095,Bearskin_Lake,-90.95338,53.9132445,355,3560,Rural
3512051,Limerick,-77.6646789,44.9127444,346,3512,Rural
3549077,Dokis_9,-80.0695759,46.0649945,344,3549,Rural
3551028,Burpee_and_Mills,-82.6473949,45.6295023,343,3551,Rural
3552031,Nairn_and_Hyman,-81.6264285,46.3252944,342,3552,Rural
3554054,Chamberlain,-79.9661025,47.9000247,332,3554,Rural
3558097,Whitesand,-89.0304593,50.3159011,325,3558,Rural
3549073,Parry_Island_First_Nation,-80.1583698,45.299032,317,3549,Rural
3558034,Dorion,-88.6364667,48.8115813,316,3558,Rural
3554006,Latchford,-79.811053,47.329887,313,3554,Rural
3557001,Jocelyn,-83.9386858,46.1444602,313,3557,Rural
3557004,Hilton,-83.842257,46.1776717,307,3557,Rural
3549051,Joly,-79.2491155,45.7979609,304,3549,Rural
3558064,Lake_Helen_53A,-88.2409836,49.029205,293,3558,Rural
3560080,North_Spirit_Lake,-93.023709,52.506859,293,3560,Rural
3559026,Manitou_Rapids_11,-93.9294851,48.6623162,283,3559,Rural
3560097,Muskrat_Dam_Lake,-91.812052,53.386598,281,3560,Rural
3559066,Seine_River_23A,-92.425934,48.719284,263,3559,Rural
3519076,Chippewas_of_Georgina_Island_First_Nation,-79.2958491,44.3711031,261,3519,Rural
3560052,Marten_Falls_65,-85.8954427,51.6751307,252,3560,Rural
3547098,Head_Clara_and_Maria,-77.9952883,46.1539312,248,3547,Rural
3558065,Gull_River_55,-89.1416357,49.8208498,247,3558,Rural
3560093,Neskantaga,-88.0321218,52.2014143,237,3560,Rural
3537001,Pelee,-82.6591465,41.7744889,235,3537,Rural
3559051,Big_Grassy_River_35G,-94.2893267,49.0527187,235,3559,Rural
3558085,Osnaburgh_63A,-90.2430137,51.0642551,232,3558,Rural
3559047,Lake_of_the_Woods,-94.8475431,49.0609997,230,3559,Rural
3556073,Opasatika,-82.877021,49.529882,226,3556,Rural
3554056,Matachewan,-80.6473962,47.9392024,225,3554,Rural
3560024,Eagle_Lake_27,-93.0377664,49.7433728,224,3560,Rural
3554034,Hilliard,-79.6769036,47.7146292,223,3554,Rural
3559068,Rainy_Lake_17A,-93.5907273,48.8493926,211,3559,Rural
3558067,Ginoogaming_First_Nation,-86.5153368,49.7308142,210,3558,Rural
3544073,Moose_Point_79,-80.0375238,45.0828894,208,3544,Rural
3558060,Pic_Mobert_North,-85.6191552,48.7025835,197,3558,Rural
3549072,Shawanaga_17,-80.3170266,45.5215667,195,3549,Rural
3560091,Peawanuck,-85.4277409,54.9938942,195,3560,Rural
3560089,The_Dalles_38C,-94.5328715,49.8841624,194,3560,Rural
3552052,Mattagami_71,-81.5296842,47.8672239,190,3552,Rural
3549095,Parry_Sound_Unorganized_North_East_Part,-79.2842868,45.8973103,187,3549,Rural
3560046,Slate_Falls,-91.582264,51.161124,187,3560,Rural
3558069,Rocky_Bay_1,-88.1324715,49.4385537,184,3558,Rural
3559060,Neguaguon_Lake_25D,-92.0307484,48.3909294,177,3559,Rural
3557006,Hilton_Beach,-83.8888755,46.2568935,171,3557,Rural
3551094,Manitoulin_Unorganized_West_Part,-82.9457993,45.8769365,169,3551,Rural
3560057,Wabigoon_Lake_27,-92.5119703,49.6129253,168,3560,Rural
3548019,Mattawan,-78.8289178,46.3751624,161,3548,Rural
3559064,Rainy_Lake_26A,-92.9383776,48.7470695,157,3559,Rural
3539018,Munsee-Delaware_Nation_1,-81.4773294,42.7944165,153,3539,Rural
3548072,Bear_Island_1,-80.068333,46.9809952,153,3548,Rural
3560064,Shoal_Lake_34B2,-95.1215206,49.6061343,151,3560,Rural
3556033,Abitibi_70,-79.9814442,48.6151454,144,3556,Rural
3560069,Rat_Portage_38A,-94.5979661,49.6868998,140,3560,Rural
3554066,Gauthier,-79.8331539,48.12848,138,3554,Rural
3551044,Sheshegwaning_20,-82.8514279,45.9379374,137,3551,Rural
3528035,New_Credit_(Part)_40A,-80.0814292,43.0001853,135,3528,Rural
3551042,Sheguiandah_24,-81.943072,45.8534473,134,3551,Rural
3518022,Mississaugas_of_Scugog_Island,-78.8863847,44.1935628,131,3518,Rural
3558061,Pic_Mobert_South,-85.6418817,48.6899351,125,3558,Rural
3557026,Thessalon_12,-83.4168164,46.2451906,124,3557,Rural
3560083,Whitefish_Bay_34A,-93.976126,49.3732945,124,3560,Rural
3549076,French_River_13,-80.5158329,46.0021344,117,3549,Rural
3553040,Wahnapitei_11,-80.8379677,46.7741054,116,3553,Rural
3559061,Rainy_Lake_18C,-93.3473249,48.7133231,115,3559,Rural
3554038,Thornloe,-79.7639792,47.6678616,112,3554,Rural
3548091,Nipissing_Unorganized_South_Part,-78.6864071,45.8005183,103,3548,Rural
3549078,Magnetewan_1,-80.458631,45.748153,101,3549,Rural
